[{"name":"수복약국","address":"(04356) 서울 용산구 새창로12길 12 도원동","tel":"02-714-0667","hours":"07:30 ~ 익일01:00"},{"name":"용산사랑약국","address":"(04365) 서울 용산구 원효로 28 1층","tel":"02-711-2731","hours":"09:00 ~ 20:00"},{"name":"한국구일약국","address":"(04425) 서울 용산구 이촌로 300 1층","tel":"02-792-9290","hours":"08:30 ~ 20:00"},{"name":"ekdhf약국","address":"(04313) 서울 용산구 청파로 251 지하102호","tel":"02-702-7083","hours":"09:00 ~ 20:00"},{"name":"서울중앙약국","address":"(04301) 서울 용산구 청파로 378 서울역사내","tel":"02-313-4483","hours":"07:00 ~ 23:00"},{"name":"동부약국","address":"(04423) 서울특별시 용산구 이촌로 245 1층","tel":"02-795-6242","hours":"08:30 ~ 22:00"},{"name":"현대온누리약국","address":"(04426) 서울특별시 용산구 이촌로 280 1층1호","tel":"02-795-9842","hours":"09:00 ~ 21:00"},{"name":"임상약국","address":"(04374) 서울특별시 용산구 이촌로18길 9 1층","tel":"02-713-0493","hours":"08:00 ~ 22:00"},{"name":"승현약국","address":"(04305) 서울특별시 용산구 효창원로 271-1 1층","tel":"02-714-3231","hours":"09:00 ~ 19:00"},{"name":"용산대학약국","address":"(04402) 서울 용산구 대사관로 58 1층","tel":"02-795-4549","hours":"08:30 ~ 20:00"},{"name":"부자","address":"(04409) 서울 용산구 대사관로30가길 1 1층","tel":"02-793-7715","hours":"09:00 ~ 20:00"},{"name":"신효창프라자약국","address":"(04318) 서울 용산구 백범로 285 1층 신효창프라자약국","tel":"02-718-6448","hours":"08:30 ~ 19:30"},{"name":"새봄약국","address":"(04318) 서울 용산구 백범로 287 효창동","tel":"02-2135-1303","hours":"09:00 ~ 19:30"},{"name":"수약국","address":"(04318) 서울 용산구 백범로51길 6 지하1층 수약국","tel":"02-701-8224","hours":"08:00 ~ 19:00"},{"name":"신진약국","address":"(04414) 서울 용산구 보광동 238-9 신진약국","tel":"02-794-8276","hours":"08:30 ~ 20:00"},{"name":"보광프라자약국","address":"(04394) 서울 용산구 보광동 280-3 보광프라자약국","tel":"02-796-5244","hours":"09:00 ~ 22:00"},{"name":"코끼리약국","address":"(04415) 서울 용산구 보광로 30 2층 코끼리약국","tel":"02-796-0484","hours":"08:30 ~ 18:30"},{"name":"용산오늘약국","address":"(04376) 서울 용산구 새창로 217 1층 용산오늘약국","tel":"02-6390-7377","hours":"09:00 ~ 21:00"},{"name":"서울성모약국","address":"(04354) 서울 용산구 새창로 70 113-801","tel":"02-832-8575","hours":"08:00 ~ 21:00"},{"name":"용산파크약국","address":"(04387) 서울 용산구 서빙고로 17 센트럴파크해링턴104동2층50호","tel":"02-797-5055","hours":"09:30 ~ 20:00"},{"name":"수복약국","address":"(04356) 서울 용산구 새창로12길 12 도원동","tel":"02-714-0667","hours":"07:30 ~ 익일01:00"},{"name":"용산사랑약국","address":"(04365) 서울 용산구 원효로 28 1층","tel":"02-711-2731","hours":"09:00 ~ 20:00"},{"name":"한국구일약국","address":"(04425) 서울 용산구 이촌로 300 1층","tel":"02-792-9290","hours":"08:30 ~ 20:00"},{"name":"ekdhf약국","address":"(04313) 서울 용산구 청파로 251 지하102호","tel":"02-702-7083","hours":"09:00 ~ 20:00"},{"name":"서울중앙약국","address":"(04301) 서울 용산구 청파로 378 서울역사내","tel":"02-313-4483","hours":"07:00 ~ 23:00"},{"name":"동부약국","address":"(04423) 서울특별시 용산구 이촌로 245 1층","tel":"02-795-6242","hours":"08:30 ~ 22:00"},{"name":"현대온누리약국","address":"(04426) 서울특별시 용산구 이촌로 280 1층1호","tel":"02-795-9842","hours":"09:00 ~ 21:00"},{"name":"임상약국","address":"(04374) 서울특별시 용산구 이촌로18길 9 1층","tel":"02-713-0493","hours":"08:00 ~ 22:00"},{"name":"승현약국","address":"(04305) 서울특별시 용산구 효창원로 271-1 1층","tel":"02-714-3231","hours":"09:00 ~ 19:00"},{"name":"용산대학약국","address":"(04402) 서울 용산구 대사관로 58 1층","tel":"02-795-4549","hours":"08:30 ~ 20:00"},{"name":"부자","address":"(04409) 서울 용산구 대사관로30가길 1 1층","tel":"02-793-7715","hours":"09:00 ~ 20:00"},{"name":"신효창프라자약국","address":"(04318) 서울 용산구 백범로 285 1층 신효창프라자약국","tel":"02-718-6448","hours":"08:30 ~ 19:30"},{"name":"새봄약국","address":"(04318) 서울 용산구 백범로 287 효창동","tel":"02-2135-1303","hours":"09:00 ~ 19:30"},{"name":"수약국","address":"(04318) 서울 용산구 백범로51길 6 지하1층 수약국","tel":"02-701-8224","hours":"08:00 ~ 19:00"},{"name":"신진약국","address":"(04414) 서울 용산구 보광동 238-9 신진약국","tel":"02-794-8276","hours":"08:30 ~ 20:00"},{"name":"보광프라자약국","address":"(04394) 서울 용산구 보광동 280-3 보광프라자약국","tel":"02-796-5244","hours":"09:00 ~ 22:00"},{"name":"코끼리약국","address":"(04415) 서울 용산구 보광로 30 2층 코끼리약국","tel":"02-796-0484","hours":"08:30 ~ 18:30"},{"name":"용산오늘약국","address":"(04376) 서울 용산구 새창로 217 1층 용산오늘약국","tel":"02-6390-7377","hours":"09:00 ~ 21:00"},{"name":"서울성모약국","address":"(04354) 서울 용산구 새창로 70 113-801","tel":"02-832-8575","hours":"08:00 ~ 21:00"},{"name":"용산파크약국","address":"(04387) 서울 용산구 서빙고로 17 센트럴파크해링턴104동2층50호","tel":"02-797-5055","hours":"09:30 ~ 20:00"},{"name":"편한약국","address":"(04387) 서울 용산구 서빙고로 17 용산센트럴파크 해링턴스퀘어 1층 47","tel":"02-793-8887","hours":"08:30 ~ 21:00"},{"name":"인원약국","address":"(04328) 서울 용산구 신흥로20길 5 1층","tel":"02-774-4035","hours":"08:30 ~ 21:00"},{"name":"명진약국","address":"(04337) 서울 용산구 신흥로36길 3 1층","tel":"02-778-4365","hours":"08:30 ~ 21:00"},{"name":"백경약국","address":"(04363) 서울 용산구 원효로41길 38 백경약국","tel":"02-703-0382","hours":"09:00 ~ 20:00"},{"name":"원효종로엠약국","address":"(04363) 서울 용산구 원효로41길 56 원효종로엠약국","tel":"02-704-3118","hours":"09:00 ~ 22:00"},{"name":"서현약국","address":"(04427) 서울 용산구 이촌로 200 LG상가지하1층","tel":"010-8879-9316","hours":"09:00 ~ 19:00"},{"name":"소망약국","address":"(04426) 서울 용산구 이촌로 264 삼익상가1층106호","tel":"02-795-5582","hours":"09:00 ~ 21:00"},{"name":"예사랑약국","address":"(04428) 서울 용산구 이촌로 352 신동아쇼핑센터103호","tel":"02-3477-7500","hours":"08:00 ~ 18:00"},{"name":"메디팜 미래로약국","address":"(04309) 서울 용산구 청파로47길 40 메디팜 미래로약국","tel":"02-713-8716","hours":"08:30 ~ 22:00"},{"name":"숙명온누리약국","address":"(04310) 서울 용산구 청파로47길 66 1층 숙명온누리약국","tel":"02-717-6415","hours":"09:30 ~ 21:00"},{"name":"나라약국","address":"(04313) 서울 용산구 청파로47길 7 1층","tel":"02-6949-3332","hours":"08:30 ~ 20:00"},{"name":"다정약국","address":"(04324) 서울 용산구 한강대로104길 51 1층 다정약국","tel":"02-6497-2899","hours":"09:00 ~ 19:00"},{"name":"신용산약국","address":"(04379) 서울 용산구 한강대로15길 9-18 1층","tel":"02-795-3774","hours":"08:30 ~ 18:00"},{"name":"보림사약국","address":"(04382) 서울 용산구 한강대로62나길 20 서울 용산구 한강대로62나길 20","tel":"02-793-2700","hours":"08:30 ~ 21:30"},{"name":"호정약국","address":"(04311) 서울 용산구 효창원로 227 용산데시앙포레3상가2층201호","tel":"010-8725-0255","hours":"09:00 ~ 19:00"},{"name":"건강한약국","address":"(04311) 서울 용산구 효창원로93길 2 1층","tel":"02-3273-0750","hours":"09:00 ~ 21:00"},{"name":"푸른약국","address":"(04332) 서울 용산구 후암로 41 푸른약국","tel":"02-3789-1460","hours":"09:00 ~ 20:00"},{"name":"은정약국","address":"(04335) 서울 용산구 후암로 7-1 후암동","tel":"010-4121-1511","hours":"09:00 ~ 19:00"},{"name":"가장큰태평양약국","address":"(04402) 서울특별시 용산구 대사관로 52 1층","tel":"02-790-3376","hours":"08:30 ~ 18:30"},{"name":"세브레스약국","address":"(04402) 서울특별시 용산구 대사관로 56 1층","tel":"02-798-3048","hours":"08:30 ~ 18:30"},{"name":"정문약국","address":"(04402) 서울특별시 용산구 대사관로 60-1 1층","tel":"02-796-2580","hours":"08:30 ~ 19:00"},{"name":"용약국","address":"(04402) 서울특별시 용산구 대사관로24길 6 1층","tel":"02-794-5528","hours":"08:00 ~ 20:00"},{"name":"시온약국","address":"(04419) 서울특별시 용산구 독서당로 67 1층","tel":"02-790-7897","hours":"09:00 ~ 22:00"},{"name":"정화약국","address":"(04335) 서울특별시 용산구 두텁바위로 11 1층","tel":"02-774-2399","hours":"09:00 ~ 21:00"},{"name":"구약국","address":"(04305) 서울특별시 용산구 만리재로 134 1층","tel":"02-702-7582","hours":"08:30 ~ 20:00"},{"name":"효창약국","address":"(04318) 서울특별시 용산구 백범로 259 1층","tel":"02-2611-2789","hours":"09:00 ~ 19:00"},{"name":"우정약국","address":"(04315) 서울특별시 용산구 백범로 341 3층","tel":"02-713-5408","hours":"09:00 ~ 19:00"},{"name":"이태원 수약국","address":"(04391) 서울특별시 용산구 보광로 125 1층","tel":"02-792-9834","hours":"09:00 ~ 20:30"},{"name":"동오약국","address":"(04415) 서울특별시 용산구 보광로 18 1층","tel":"02-749-1293","hours":"09:00 ~ 21:00"},{"name":"알파약국","address":"(04414) 서울특별시 용산구 보광로 46 1층","tel":"02-795-6092","hours":"09:00 ~ 21:00"},{"name":"경인약국","address":"(04356) 서울특별시 용산구 새창로14길 50 1층","tel":"02-715-6083","hours":"08:00 ~ 22:00"},{"name":"삼희약국","address":"(04387) 서울특별시 용산구 서빙고로 17 센트럴파크몰104동2층9호","tel":"02-793-8575","hours":"09:00 ~ 20:00"},{"name":"참온누리약국","address":"(04337) 서울특별시 용산구 신흥로 150-1 1층","tel":"02-754-5682","hours":"09:00 ~ 21:00"},{"name":"힐링약국","address":"(04338) 서울특별시 용산구 신흥로 53 1층","tel":"02-797-1175","hours":"09:00 ~ 19:00"},{"name":"보현약국","address":"(04328) 서울특별시 용산구 신흥로20길 1 1층","tel":"02-793-1981","hours":"08:30 ~ 21:00"},{"name":"소명약국","address":"(04406) 서울특별시 용산구 우사단로 43 1층","tel":"02-795-9954","hours":"09:00 ~ 23:00"},{"name":"대한당약국","address":"(04408) 서울특별시 용산구 우사단로10길 41 1층","tel":"02-794-8056","hours":"09:30 ~ 21:30"},{"name":"신태양약국","address":"(04413) 서울특별시 용산구 우사단로2길 23 1층","tel":"02-794-0744","hours":"08:30 ~ 21:00"},{"name":"보승약국","address":"(04413) 서울특별시 용산구 우사단로4길 42-1 1층","tel":"02-749-8218","hours":"09:30 ~ 17:00"},{"name":"정다운약국","address":"(04363) 서울특별시 용산구 원효로 155 1층","tel":"02-2237-0388","hours":"09:00 ~ 20:30"},{"name":"남선약국","address":"(04366) 서울특별시 용산구 원효로 166 103호","tel":"02-798-7460","hours":"09:30 ~ 21:00"},{"name":"금보약국","address":"(04359) 서울특별시 용산구 원효로 51 110호 1층","tel":"02-718-3673","hours":"09:00 ~ 20:00"},{"name":"삼정약국","address":"(04362) 서울특별시 용산구 원효로19길 72-1 1층","tel":"02-712-4941","hours":"08:30 ~ 22:30"},{"name":"풍전약국","address":"(04362) 서울특별시 용산구 원효로25길 31 1층","tel":"02-719-6833","hours":"08:30 ~ 21:00"},{"name":"세계약국","address":"(04364) 서울특별시 용산구 원효로53길 1 1층","tel":"02-703-4649","hours":"09:00 ~ 19:00"},{"name":"2층성장약국","address":"(04427) 서울특별시 용산구 이촌로 224 한강쇼핑센터2층 210-1호 2층","tel":"02-591-6626","hours":"08:30 ~ 19:00"},{"name":"양지약국","address":"(04426) 서울특별시 용산구 이촌로 248 11동 103-1호","tel":"02-793-8253","hours":"09:00 ~ 20:00"},{"name":"한진약국","address":"(04374) 서울특별시 용산구 이촌로2가길66 1층","tel":"02-712-8259","hours":"08:30 ~ 21:00"},{"name":"문화약국","address":"(04416) 서울특별시 용산구 장문로 114-1 ","tel":"02-795-8430","hours":"10:00 ~ 17:00"},{"name":"동광약국","address":"(04393) 서울특별시 용산구 장문로 66-1 1층","tel":"02-794-3413","hours":"09:30 ~ 22:00"},{"name":"신세계약국","address":"(04395) 서울특별시 용산구 장문로 94 ","tel":"02-797-8403","hours":"09:00 ~ 20:00"},{"name":"실로암약국","address":"(04366) 서울특별시 용산구 청파로 101 나진상가10호","tel":"02-716-8145","hours":"09:00 ~ 22:00"},{"name":"메디팜최약국","address":"(04301) 서울특별시 용산구 청파로 324 1층","tel":"02-715-6009","hours":"09:00 ~ 18:00"},{"name":"가정약국","address":"(04304) 서울특별시 용산구 청파로 333 1층","tel":"02-713-6200","hours":"09:00 ~ 21:00"},{"name":"소아제일약국","address":"(04300) 서울특별시 용산구 청파로 383 1층","tel":"02-711-2223","hours":"08:30 ~ 18:00"},{"name":"신보영약국","address":"(04382) 서울특별시 용산구 한강대로 152 ","tel":"02-793-9627","hours":"07:30 ~ 21:30"},{"name":"메디팜나은약국","address":"(04322) 서울특별시 용산구 한강대로 211 대우월드110호","tel":"02-373-8068","hours":"09:00 ~ 20:30"},{"name":"사랑플러스약국","address":"(04352) 서울특별시 용산구 한강대로 258 1층","tel":"02-790-5392","hours":"08:30 ~ 19:00"},{"name":"국제약국","address":"(04352) 서울특별시 용산구 한강대로 290-1 1층","tel":"02-794-0705","hours":"09:00 ~ 21:00"},{"name":"새서부약국","address":"(04321) 서울특별시 용산구 한강대로 293 1층","tel":"02-715-0966","hours":"09:00 ~ 21:00"}]